[
  {
    "name": "Vinícola Miolo",
    "city": "Bento Gonçalves",
    "country": "Brazil",
    "latitude": -29.374145,
    "longitude": -51.603487
  },
  {
    "name": "Casa Valduga",
    "city": "Bento Gonçalves",
    "country": "Brazil",
    "latitude": 46.057556,
    "longitude": 11.895106
  },
  {
    "name": "Vinícula Aurora",
    "city": "Bento Gonçalves",
    "country": "Brazil",
    "latitude": -29.486403,
    "longitude": -51.341546
  },
  {
    "name": "Vinícola Peterlongo",
    "city": "Garibaldi",
    "country": "Brazil",
    "latitude": -29.262150,
    "longitude": -51.532074
  },
  {
    "name": "Vinhedos de Monte Agudo",
    "city": "São Joaquim",
    "country": "Brazil",
    "latitude": -28.246113706823685,
    "longitude": -49.962097002099625
  },
  {
    "name": "Vinícola Hiragami",
    "city": "Urubici",
    "country": "Brazil",
    "latitude": -28.281336712959398,
    "longitude": -49.92322680209851
  },
  {
    "name": "Vinícola Terranova",
    "city": "Casa Nova",
    "country": "Brazil",
    "latitude": -9.262924600817053,
    "longitude": -40.849010362111926
  },
  {
    "name": "Vinícola Terranova",
    "city": "Casa Nova",
    "country": "Brazil",
    "latitude": -9.262924600817053,
    "longitude": -40.849010362111926
  },
  {
    "name": "Vinícola Rio Sol",
    "city": "Lagoa Grande",
    "country": "Brazil",
    "latitude": -9.059776426405632,
    "longitude": -40.192663048623544
  }
]  
 